[
  {
    "name": "Bay County Sheriff Office",
    "street_address": "3421 Highway 77",
    "special_needs": false,
    "pet_friendly": true,
    "general_population": true,
    "county": "Bay",
    "address": "3421 Highway 77, Bay, FL",
    "lat": 30.2104789,
    "lng": -85.6508419
  },
  {
    "name": "Bay HS",
    "street_address": "1204 Harrison Ave",
    "special_needs": false,
    "pet_friendly": true,
    "general_population": true,
    "county": "Bay",
    "address": "1204 Harrison Ave, Bay, FL",
    "lat": 30.170285,
    "lng": -85.6574376
  },
  {
    "name": "Bozeman Learning Center",
    "street_address": "13410 SR 77",
    "special_needs": false,
    "pet_friendly": true,
    "general_population": true,
    "county": "Bay",
    "address": "13410 SR 77, Bay, FL",
    "lat": 30.3939161,
    "lng": -85.6864252
  },
  {
    "name": "Cedar Grove ES",
    "street_address": "2826 East 15th St",
    "special_needs": false,
    "pet_friendly": true,
    "general_population": true,
    "county": "Bay",
    "address": "2826 East 15th St, Bay, FL",
    "lat": 30.1739372,
    "lng": -85.6213434
  },
  {
    "name": "Jinks MS",
    "street_address": "600 W 11th St",
    "special_needs": false,
    "pet_friendly": true,
    "general_population": true,
    "county": "Bay",
    "address": "600 W 11th St, Bay, FL",
    "lat": 30.1698882,
    "lng": -85.6681737
  },
  {
    "name": "Merriam-Cherry St. ES",
    "street_address": "1125 Cherry St",
    "special_needs": false,
    "pet_friendly": true,
    "general_population": true,
    "county": "Bay",
    "address": "1125 Cherry St, Bay, FL",
    "lat": 30.1468299,
    "lng": -85.64541390000001
  },
  {
    "name": "Merritt Brown MS",
    "street_address": "5601 Merritt Brown Rd",
    "special_needs": false,
    "pet_friendly": true,
    "general_population": true,
    "county": "Bay",
    "address": "5601 Merritt Brown Rd, Bay, FL",
    "lat": 30.242439,
    "lng": -85.5627196
  },
  {
    "name": "Moore ES",
    "street_address": "1900 Michigan Ave",
    "special_needs": false,
    "pet_friendly": true,
    "general_population": true,
    "county": "Bay",
    "address": "1900 Michigan Ave, Bay, FL",
    "lat": 30.1835367,
    "lng": -85.7065148
  },
  {
    "name": "Mowat MS",
    "street_address": "1903 Hwy 390",
    "special_needs": false,
    "pet_friendly": true,
    "general_population": true,
    "county": "Bay",
    "address": "1903 Hwy 390, Bay, FL",
    "lat": 30.2278214,
    "lng": -85.6556892
  },
  {
    "name": "New Horizons Learning Center",
    "street_address": "3100 Minnesota Ave",
    "special_needs": false,
    "pet_friendly": true,
    "general_population": true,
    "county": "Bay",
    "address": "3100 Minnesota Ave, Bay, FL",
    "lat": 30.2055406,
    "lng": -85.645527
  },
  {
    "name": "Oakland Terrace ES",
    "street_address": "2010 W 12th St",
    "special_needs": false,
    "pet_friendly": true,
    "general_population": true,
    "county": "Bay",
    "address": "2010 W 12th St, Bay, FL",
    "lat": 30.1704361,
    "lng": -85.6913697
  },
  {
    "name": "Parker ES",
    "street_address": "640 S Hwy 22A",
    "special_needs": false,
    "pet_friendly": true,
    "general_population": true,
    "county": "Bay",
    "address": "640 S Hwy 22A, Bay, FL",
    "lat": 30.1356211,
    "lng": -85.6007573
  },
  {
    "name": "Pattersen ES",
    "street_address": "1025 Redwood Ave",
    "special_needs": false,
    "pet_friendly": true,
    "general_population": true,
    "county": "Bay",
    "address": "1025 Redwood Ave, Bay, FL",
    "lat": 30.166414,
    "lng": -85.63866960000001
  },
  {
    "name": "Rosenwald HS",
    "street_address": "1310 E 11th St",
    "special_needs": false,
    "pet_friendly": true,
    "general_population": true,
    "county": "Bay",
    "address": "1310 E 11th St, Bay, FL",
    "lat": 30.166061,
    "lng": -85.6400201
  },
  {
    "name": "Rutherford HS",
    "street_address": "1000 School Ave",
    "special_needs": false,
    "pet_friendly": true,
    "general_population": true,
    "county": "Bay",
    "address": "1000 School Ave, Bay, FL",
    "lat": 30.1659736,
    "lng": -85.61457589999999
  },
  {
    "name": "Tommy Smith ES",
    "street_address": "5044 Tommy Smith Way",
    "special_needs": false,
    "pet_friendly": true,
    "general_population": true,
    "county": "Bay",
    "address": "5044 Tommy Smith Way, Bay, FL",
    "lat": 30.2420056,
    "lng": -85.5631398
  },
  {
    "name": "Waller ES",
    "street_address": "11332 Highway 388",
    "special_needs": false,
    "pet_friendly": true,
    "general_population": true,
    "county": "Bay",
    "address": "11332 Highway 388, Bay, FL",
    "lat": 30.3667303,
    "lng": -85.44195359999999
  },
  {
    "name": "Waller ES",
    "street_address": "11332 Hwy 338",
    "special_needs": false,
    "pet_friendly": true,
    "general_population": true,
    "county": "Bay",
    "address": "11332 Hwy 338, Bay, FL",
    "lat": 30.1805306,
    "lng": -85.684578
  },
  {
    "name": "Palm Bay Community Center",
    "street_address": "1951 NW Malabar Rd",
    "special_needs": false,
    "pet_friendly": true,
    "general_population": true,
    "county": "Brevard",
    "address": "1951 NW Malabar Rd, Brevard, FL",
    "lat": 27.9990786,
    "lng": -80.72964940000001
  },
  {
    "name": "Port St. John Community Center",
    "street_address": "6650 Corto Rd",
    "special_needs": false,
    "pet_friendly": true,
    "general_population": true,
    "county": "Brevard",
    "address": "6650 Corto Rd, Brevard, FL",
    "lat": 28.4746433,
    "lng": -80.80575379999999
  },
  {
    "name": "Viera Regional Community Center",
    "street_address": "2300 Judge Fran Jamieson Way",
    "special_needs": false,
    "pet_friendly": true,
    "general_population": true,
    "county": "Brevard",
    "address": "2300 Judge Fran Jamieson Way, Brevard, FL",
    "lat": 28.2485127,
    "lng": -80.72914399999999
  },
  {
    "name": "Challenger ES",
    "street_address": "5700 NW 94 Ave",
    "special_needs": false,
    "pet_friendly": true,
    "general_population": true,
    "county": "Broward",
    "address": "5700 NW 94 Ave, Broward, FL",
    "lat": 26.195122,
    "lng": -80.27557879999999
  },
  {
    "name": "Everglades ES",
    "street_address": "2900 Bonaventure Blvd",
    "special_needs": false,
    "pet_friendly": true,
    "general_population": true,
    "county": "Broward",
    "address": "2900 Bonaventure Blvd, Broward, FL",
    "lat": 26.0852146,
    "lng": -80.3884812
  },
  {
    "name": "Everglades HS",
    "street_address": "17100 SW 48th Ct",
    "special_needs": false,
    "pet_friendly": true,
    "general_population": false,
    "county": "Broward",
    "address": "17100 SW 48th Ct, Broward, FL",
    "lat": 25.9697138,
    "lng": -80.37382840000001
  },
  {
    "name": "Falcon Cove MS",
    "street_address": "4251 Bonaventure Blvd",
    "special_needs": false,
    "pet_friendly": true,
    "general_population": false,
    "county": "Broward",
    "address": "4251 Bonaventure Blvd, Broward, FL",
    "lat": 26.0634784,
    "lng": -80.395695
  },
  {
    "name": "Lyons Creek MS",
    "street_address": "4333 Sol Press Blvd",
    "special_needs": false,
    "pet_friendly": true,
    "general_population": false,
    "county": "Broward",
    "address": "4333 Sol Press Blvd, Broward, FL",
    "lat": 26.3109795,
    "lng": -80.1822755
  },
  {
    "name": "Millennium MS",
    "street_address": "5803 NW 94th Ave",
    "special_needs": false,
    "pet_friendly": true,
    "general_population": true,
    "county": "Broward",
    "address": "5803 NW 94th Ave, Broward, FL",
    "lat": 26.1969387,
    "lng": -80.27777780000001
  },
  {
    "name": "Keystone Heights HS",
    "street_address": "900 SW Orchid Ave",
    "special_needs": false,
    "pet_friendly": true,
    "general_population": true,
    "county": "Clay",
    "address": "900 SW Orchid Ave, Clay, FL",
    "lat": 29.78028339999999,
    "lng": -82.04105419999999
  },
  {
    "name": "Atlantic Coast HS",
    "street_address": "9735 R G Skinner Pkwy",
    "special_needs": false,
    "pet_friendly": true,
    "general_population": true,
    "county": "Duval",
    "address": "9735 R G Skinner Pkwy, Duval, FL",
    "lat": 30.2027086,
    "lng": -81.5053454
  },
  {
    "name": "Landmark MS",
    "street_address": "101 Kernan Blvd N",
    "special_needs": false,
    "pet_friendly": true,
    "general_population": true,
    "county": "Duval",
    "address": "101 Kernan Blvd N, Duval, FL",
    "lat": 30.3233009,
    "lng": -81.4873107
  },
  {
    "name": "Mandarin MS",
    "street_address": "5100 Hood Rd",
    "special_needs": false,
    "pet_friendly": true,
    "general_population": true,
    "county": "Duval",
    "address": "5100 Hood Rd, Duval, FL",
    "lat": 30.1894166,
    "lng": -81.5877457
  },
  {
    "name": "The Legends Center of Jacksonville",
    "street_address": "5130 Soutel Dr",
    "special_needs": false,
    "pet_friendly": true,
    "general_population": true,
    "county": "Duval",
    "address": "5130 Soutel Dr, Duval, FL",
    "lat": 30.3961513,
    "lng": -81.7258533
  },
  {
    "name": "Molino Park ES",
    "street_address": "899 Hwy 97",
    "special_needs": false,
    "pet_friendly": true,
    "general_population": true,
    "county": "Escambia",
    "address": "899 Hwy 97, Escambia, FL",
    "lat": 30.5938514,
    "lng": -87.3495087
  },
  {
    "name": "West Glades ES",
    "street_address": "2586 Hwy 731",
    "special_needs": false,
    "pet_friendly": true,
    "general_population": true,
    "county": "Glades",
    "address": "2586 Hwy 731, Glades, FL",
    "lat": 27.0324923,
    "lng": -81.3912478
  },
  {
    "name": "Hamilton County HS",
    "street_address": "5683 US Highway 129 S",
    "special_needs": false,
    "pet_friendly": true,
    "general_population": true,
    "county": "Hamilton",
    "address": "5683 US Highway 129 S, Hamilton, FL",
    "lat": 30.4787252,
    "lng": -82.9304566
  },
  {
    "name": "Shields MS",
    "street_address": "15732 Beth Shields Way",
    "special_needs": false,
    "pet_friendly": true,
    "general_population": true,
    "county": "Hillsborough",
    "address": "15732 Beth Shields Way, Hillsborough, FL",
    "lat": 27.7398416,
    "lng": -82.3701684
  },
  {
    "name": "Smith MS",
    "street_address": "14303 Citrus Pointe Dr",
    "special_needs": false,
    "pet_friendly": true,
    "general_population": true,
    "county": "Hillsborough",
    "address": "14303 Citrus Pointe Dr, Hillsborough, FL",
    "lat": 28.0762237,
    "lng": -82.5730184
  },
  {
    "name": "Strawberry Crest HS",
    "street_address": "4691 Gallagher Rd",
    "special_needs": false,
    "pet_friendly": true,
    "general_population": true,
    "county": "Hillsborough",
    "address": "4691 Gallagher Rd, Hillsborough, FL",
    "lat": 28.0230931,
    "lng": -82.2362771
  },
  {
    "name": "Liberty Magnet School",
    "street_address": "6850 81st St",
    "special_needs": false,
    "pet_friendly": true,
    "general_population": true,
    "county": "Indian River",
    "address": "6850 81st St, Indian River, FL",
    "lat": 27.7426655,
    "lng": -80.4664052
  },
  {
    "name": "Astatula ES",
    "street_address": "13925 Florida Ave",
    "special_needs": false,
    "pet_friendly": true,
    "general_population": true,
    "county": "Lake",
    "address": "13925 Florida Ave, Lake, FL",
    "lat": 28.7115521,
    "lng": -81.725708
  },
  {
    "name": "Lost Lake ES",
    "street_address": "1901 Johns Lake Rd",
    "special_needs": false,
    "pet_friendly": true,
    "general_population": true,
    "county": "Lake",
    "address": "1901 Johns Lake Rd, Lake, FL",
    "lat": 28.5248717,
    "lng": -81.72194569999999
  },
  {
    "name": "Round Lake Charter ES",
    "street_address": "31333 Round Lake Rd",
    "special_needs": false,
    "pet_friendly": true,
    "general_population": true,
    "county": "Lake",
    "address": "31333 Round Lake Rd, Lake, FL",
    "lat": 28.8065257,
    "lng": -81.59459849999999
  },
  {
    "name": "Tavares MS",
    "street_address": "13032 Lane Park Cutoff",
    "special_needs": false,
    "pet_friendly": true,
    "general_population": true,
    "county": "Lake",
    "address": "13032 Lane Park Cutoff, Lake, FL",
    "lat": 28.77221419999999,
    "lng": -81.75757709999999
  },
  {
    "name": "Town of Lee-Publ. Saf / Emerg Shelter",
    "street_address": "304 Main St",
    "special_needs": false,
    "pet_friendly": true,
    "general_population": true,
    "county": "Lake",
    "address": "304 Main St, Lake, FL",
    "lat": 28.8111626,
    "lng": -81.87200899999999
  },
  {
    "name": "Treadway ES",
    "street_address": "10619 Treadway School Rd",
    "special_needs": false,
    "pet_friendly": true,
    "general_population": true,
    "county": "Lake",
    "address": "10619 Treadway School Rd, Lake, FL",
    "lat": 28.8454921,
    "lng": -81.7807527
  },
  {
    "name": "Umatilla ES",
    "street_address": "60 Smith St",
    "special_needs": false,
    "pet_friendly": true,
    "general_population": true,
    "county": "Lake",
    "address": "60 Smith St, Lake, FL",
    "lat": 28.9284959,
    "lng": -81.6665008
  },
  {
    "name": "Chiefland ES",
    "street_address": "1205 NW 4th Ave",
    "special_needs": false,
    "pet_friendly": true,
    "general_population": true,
    "county": "Levy",
    "address": "1205 NW 4th Ave, Levy, FL",
    "lat": 29.4803781,
    "lng": -82.8704559
  },
  {
    "name": "Madison Central School",
    "street_address": "2093 US Hwy 90",
    "special_needs": false,
    "pet_friendly": true,
    "general_population": true,
    "county": "Madison",
    "address": "2093 US Hwy 90, Madison, FL",
    "lat": 30.478162,
    "lng": -83.44549030000002
  },
  {
    "name": "Virgil Mills ES",
    "street_address": "7200 69th St E",
    "special_needs": false,
    "pet_friendly": true,
    "general_population": true,
    "county": "Manatee",
    "address": "7200 69th St E, Manatee, FL",
    "lat": 27.5757392,
    "lng": -82.4905043
  },
  {
    "name": "Willoughby Learning Center",
    "street_address": "5151 SE Willoughby Blvd",
    "special_needs": false,
    "pet_friendly": true,
    "general_population": true,
    "county": "Martin",
    "address": "5151 SE Willoughby Blvd, Martin, FL",
    "lat": 27.1391451,
    "lng": -80.2315218
  },
  {
    "name": "Dr Michael M Krop HS",
    "street_address": "1410 NE 215th St",
    "special_needs": false,
    "pet_friendly": true,
    "general_population": true,
    "county": "Miami-Dade",
    "address": "1410 NE 215th St, Miami-Dade, FL",
    "lat": 25.9715449,
    "lng": -80.1728589
  },
  {
    "name": "E. Darwin Fuchs Pavillion",
    "street_address": "10901 SW 24th St",
    "special_needs": false,
    "pet_friendly": true,
    "general_population": true,
    "county": "Miami-Dade",
    "address": "10901 SW 24th St, Miami-Dade, FL",
    "lat": 25.7476565,
    "lng": -80.37230249999999
  },
  {
    "name": "Callahan MS",
    "street_address": "450121 Old Dixie Hwy",
    "special_needs": false,
    "pet_friendly": true,
    "general_population": true,
    "county": "Nassau",
    "address": "450121 Old Dixie Hwy, Nassau, FL",
    "lat": 30.5699403,
    "lng": -81.8405372
  },
  {
    "name": "Wildlight ES",
    "street_address": "550 Curiosity Ave",
    "special_needs": true,
    "pet_friendly": true,
    "general_population": false,
    "county": "Nassau",
    "address": "550 Curiosity Ave, Nassau, FL",
    "lat": 30.63351179999999,
    "lng": -81.6403953
  },
  {
    "name": "Antioch ES",
    "street_address": "4700 Whitehurst Ln",
    "special_needs": false,
    "pet_friendly": true,
    "general_population": true,
    "county": "Okaloosa",
    "address": "4700 Whitehurst Ln, Okaloosa, FL",
    "lat": 30.71357009999999,
    "lng": -86.6110258
  },
  {
    "name": "Davidson MS",
    "street_address": "6261 Old Bethel Rd",
    "special_needs": false,
    "pet_friendly": true,
    "general_population": true,
    "county": "Okaloosa",
    "address": "6261 Old Bethel Rd, Okaloosa, FL",
    "lat": 30.7937231,
    "lng": -86.5621542
  },
  {
    "name": "Apopka HS",
    "street_address": "555 Martin St",
    "special_needs": false,
    "pet_friendly": true,
    "general_population": true,
    "county": "Orange",
    "address": "555 Martin St, Orange, FL",
    "lat": 28.6934856,
    "lng": -81.5219269
  },
  {
    "name": "Dr. Phillips HS",
    "street_address": "6500 Turkey Lake Rd",
    "special_needs": false,
    "pet_friendly": true,
    "general_population": true,
    "county": "Orange",
    "address": "6500 Turkey Lake Rd, Orange, FL",
    "lat": 28.4714997,
    "lng": -81.477887
  },
  {
    "name": "Edgewater HS",
    "street_address": "3100 Edgewater Dr",
    "special_needs": false,
    "pet_friendly": true,
    "general_population": true,
    "county": "Orange",
    "address": "3100 Edgewater Dr, Orange, FL",
    "lat": 28.580875,
    "lng": -81.39373479999999
  },
  {
    "name": "Evans HS",
    "street_address": "4949 Silver Star Rd",
    "special_needs": false,
    "pet_friendly": true,
    "general_population": true,
    "county": "Orange",
    "address": "4949 Silver Star Rd, Orange, FL",
    "lat": 28.5789687,
    "lng": -81.4486752
  },
  {
    "name": "Lake Nona HS",
    "street_address": "12500 Narcoossee Rd",
    "special_needs": false,
    "pet_friendly": true,
    "general_population": true,
    "county": "Orange",
    "address": "12500 Narcoossee Rd, Orange, FL",
    "lat": 28.3813869,
    "lng": -81.2477531
  },
  {
    "name": "Oak Ridge HS",
    "street_address": "700 W Oak Ridge Rd",
    "special_needs": false,
    "pet_friendly": true,
    "general_population": true,
    "county": "Orange",
    "address": "700 W Oak Ridge Rd, Orange, FL",
    "lat": 28.4706324,
    "lng": -81.3859941
  },
  {
    "name": "Ocoee HS",
    "street_address": "1925 Ocoee Crown Point Pkwy",
    "special_needs": false,
    "pet_friendly": true,
    "general_population": true,
    "county": "Orange",
    "address": "1925 Ocoee Crown Point Pkwy, Orange, FL",
    "lat": 28.6002228,
    "lng": -81.5573987
  },
  {
    "name": "Olympia HS",
    "street_address": "4300 S Apopka Vineland Rd",
    "special_needs": true,
    "pet_friendly": true,
    "general_population": false,
    "county": "Orange",
    "address": "4300 S Apopka Vineland Rd, Orange, FL",
    "lat": 28.4982462,
    "lng": -81.5093244
  },
  {
    "name": "Timber Creek HS",
    "street_address": "1001 Avalon Park S Blvd",
    "special_needs": false,
    "pet_friendly": true,
    "general_population": true,
    "county": "Orange",
    "address": "1001 Avalon Park S Blvd, Orange, FL",
    "lat": 28.5257382,
    "lng": -81.14838979999999
  },
  {
    "name": "University HS",
    "street_address": "2451 Cougar Way",
    "special_needs": false,
    "pet_friendly": true,
    "general_population": true,
    "county": "Orange",
    "address": "2451 Cougar Way, Orange, FL",
    "lat": 28.5781274,
    "lng": -81.2137497
  },
  {
    "name": "West Orange HS",
    "street_address": "1625 Beaulah Rd",
    "special_needs": false,
    "pet_friendly": true,
    "general_population": true,
    "county": "Orange",
    "address": "1625 Beaulah Rd, Orange, FL",
    "lat": 28.5451269,
    "lng": -81.56837999999999
  },
  {
    "name": "Harmony HS",
    "street_address": "3601 Arthur J Gallagher Blvd",
    "special_needs": false,
    "pet_friendly": true,
    "general_population": true,
    "county": "Osceola",
    "address": "3601 Arthur J Gallagher Blvd, Osceola, FL",
    "lat": 28.1874698,
    "lng": -81.1520084
  },
  {
    "name": "Liberty HS",
    "street_address": "4250 Pleasant Hill Rd",
    "special_needs": false,
    "pet_friendly": true,
    "general_population": true,
    "county": "Osceola",
    "address": "4250 Pleasant Hill Rd, Osceola, FL",
    "lat": 28.1624901,
    "lng": -81.4432506
  },
  {
    "name": "West Boynton Rec Center",
    "street_address": "6000 Northtree Blvd",
    "special_needs": false,
    "pet_friendly": true,
    "general_population": true,
    "county": "Palm Beach",
    "address": "6000 Northtree Blvd, Palm Beach, FL",
    "lat": 26.5600148,
    "lng": -80.14108089999999
  },
  {
    "name": "Gibbs Senior HS",
    "street_address": "850 34th St S",
    "special_needs": false,
    "pet_friendly": true,
    "general_population": true,
    "county": "Pinellas",
    "address": "850 34th St S, Pinellas, FL",
    "lat": 27.7612137,
    "lng": -82.6780903
  },
  {
    "name": "Gibbs Senior HS",
    "street_address": "853 34th St S",
    "special_needs": false,
    "pet_friendly": true,
    "general_population": true,
    "county": "Pinellas",
    "address": "853 34th St S, Pinellas, FL",
    "lat": 27.7618208,
    "lng": -82.67947130000002
  },
  {
    "name": "Gibbs Senior HS",
    "street_address": "854 34th St S",
    "special_needs": false,
    "pet_friendly": true,
    "general_population": true,
    "county": "Pinellas",
    "address": "854 34th St S, Pinellas, FL",
    "lat": 27.7609484,
    "lng": -82.679351
  },
  {
    "name": "Gibbs Senior HS",
    "street_address": "855 34th St S",
    "special_needs": false,
    "pet_friendly": true,
    "general_population": true,
    "county": "Pinellas",
    "address": "855 34th St S, Pinellas, FL",
    "lat": 27.7618056,
    "lng": -82.6794714
  },
  {
    "name": "Largo HS",
    "street_address": "410 Missouri Ave N",
    "special_needs": false,
    "pet_friendly": true,
    "general_population": true,
    "county": "Pinellas",
    "address": "410 Missouri Ave N, Pinellas, FL",
    "lat": 27.9203183,
    "lng": -82.7853244
  },
  {
    "name": "Palm Harbor University HS",
    "street_address": "1900 Omaha St",
    "special_needs": false,
    "pet_friendly": true,
    "general_population": true,
    "county": "Pinellas",
    "address": "1900 Omaha St, Pinellas, FL",
    "lat": 28.0851421,
    "lng": -82.76321229999999
  },
  {
    "name": "Alta Vista ES",
    "street_address": "801 Scenic Hwy",
    "special_needs": false,
    "pet_friendly": true,
    "general_population": true,
    "county": "Polk",
    "address": "801 Scenic Hwy, Polk, FL",
    "lat": 28.0855478,
    "lng": -81.6250858
  },
  {
    "name": "Lake Region HS",
    "street_address": "1995 Thunder Rd",
    "special_needs": false,
    "pet_friendly": true,
    "general_population": true,
    "county": "Polk",
    "address": "1995 Thunder Rd, Polk, FL",
    "lat": 27.9798254,
    "lng": -81.7467492
  },
  {
    "name": "Phillip O'Brien ES",
    "street_address": "1225 E Lime St",
    "special_needs": false,
    "pet_friendly": true,
    "general_population": true,
    "county": "Polk",
    "address": "1225 E Lime St, Polk, FL",
    "lat": 28.0397883,
    "lng": -81.9396606
  },
  {
    "name": "Ochwilla ES",
    "street_address": "299 N SR 21",
    "special_needs": false,
    "pet_friendly": true,
    "general_population": true,
    "county": "Putnam",
    "address": "299 N SR 21, Putnam, FL",
    "lat": 29.7142677,
    "lng": -82.0445402
  },
  {
    "name": "Avalon MS",
    "street_address": "5445 King Arthur's Way",
    "special_needs": false,
    "pet_friendly": true,
    "general_population": true,
    "county": "Santa Rosa",
    "address": "5445 King Arthur's Way, Santa Rosa, FL",
    "lat": 30.570157,
    "lng": -87.0976948
  },
  {
    "name": "Bentley ES",
    "street_address": "2190 Oregon Ave",
    "special_needs": true,
    "pet_friendly": true,
    "general_population": false,
    "county": "Seminole",
    "address": "2190 Oregon Ave, Seminole, FL",
    "lat": 28.7948347,
    "lng": -81.3309701
  },
  {
    "name": "Lyman Sr HS",
    "street_address": "865 S Ronald Reagan Blvd",
    "special_needs": false,
    "pet_friendly": true,
    "general_population": true,
    "county": "Seminole",
    "address": "865 S Ronald Reagan Blvd, Seminole, FL",
    "lat": 28.6879445,
    "lng": -81.3433792
  },
  {
    "name": "South Woods ES",
    "street_address": "4750 SR 206 W",
    "special_needs": false,
    "pet_friendly": true,
    "general_population": true,
    "county": "St. Johns",
    "address": "4750 SR 206 W, St. Johns, FL",
    "lat": 29.7266565,
    "lng": -81.4642882
  },
  {
    "name": "Timberlin Creek ES",
    "street_address": "555 Pine Tree Ln",
    "special_needs": false,
    "pet_friendly": true,
    "general_population": true,
    "county": "St. Johns",
    "address": "555 Pine Tree Ln, St. Johns, FL",
    "lat": 30.043256,
    "lng": -81.56581249999999
  },
  {
    "name": "Ft Pierce Westwood HS",
    "street_address": "1801 Panther Ln",
    "special_needs": false,
    "pet_friendly": true,
    "general_population": true,
    "county": "St. Lucie",
    "address": "1801 Panther Ln, St. Lucie, FL",
    "lat": 27.4601507,
    "lng": -80.37630399999999
  },
  {
    "name": "Agriculture Center",
    "street_address": "7620 SR 471",
    "special_needs": false,
    "pet_friendly": true,
    "general_population": true,
    "county": "Sumter",
    "address": "7620 SR 471, Sumter, FL",
    "lat": 28.6438138,
    "lng": -82.0557341
  },
  {
    "name": "South Sumter Sr HS",
    "street_address": "7060 N Main St / SR 475",
    "special_needs": false,
    "pet_friendly": true,
    "general_population": true,
    "county": "Sumter",
    "address": "7060 N Main St / SR 475, Sumter, FL",
    "lat": 28.6724545,
    "lng": -82.1119483
  },
  {
    "name": "Citrus Grove ES (K-5)",
    "street_address": "729 Hazen Rd",
    "special_needs": false,
    "pet_friendly": true,
    "general_population": true,
    "county": "Volusia",
    "address": "729 Hazen Rd, Volusia, FL",
    "lat": 29.0396421,
    "lng": -81.3354722
  },
  {
    "name": "Manatee Cove ES",
    "street_address": "734 W Ohio Ave",
    "special_needs": false,
    "pet_friendly": true,
    "general_population": true,
    "county": "Volusia",
    "address": "734 W Ohio Ave, Volusia, FL",
    "lat": 28.9386708,
    "lng": -81.308995
  },
  {
    "name": "Pine Trail ES",
    "street_address": "300 Airport Rd",
    "special_needs": false,
    "pet_friendly": true,
    "general_population": true,
    "county": "Volusia",
    "address": "300 Airport Rd, Volusia, FL",
    "lat": 29.0362409,
    "lng": -81.0344751
  },
  {
    "name": "Volusia County Fairground",
    "street_address": "3150 E New York Ave",
    "special_needs": false,
    "pet_friendly": true,
    "general_population": true,
    "county": "Volusia",
    "address": "3150 E New York Ave, Volusia, FL",
    "lat": 29.01664719999999,
    "lng": -81.2245499
  }
]